City,Date,Lat,Lon,Temp,Humidity,Cloudiness,Wind Speed
Lebu,1583576034,-37.62,-73.65,57.92,85,83,8.03
Hasaki,1583576034,35.73,140.83,46.4,65,75,6.93
Saldanha,1583576034,-33.01,17.94,84.2,39,0,8.05
Hermanus,1583576035,-34.42,19.23,80.01,74,0,5.99
Punta Arenas,1583576035,-53.15,-70.92,44.6,93,40,11.41
Tautira,1583576036,-17.73,-149.15,80.6,78,20,4.7
Kununurra,1583576036,-15.77,128.73,91.4,49,88,6.93
Jinchang,1583576037,38.5,102.17,46.58,21,0,7.63
Rikitea,1583576038,-23.12,-134.97,76.78,89,100,18.25
Venice of the Philippines,1583576038,4.66,119.39,82.74,76,100,9.91
Bluff,1583575955,-46.6,168.33,57.99,96,100,7.0
Okhotsk,1583576039,59.38,143.3,-5.62,95,0,1.32
Mataura,1583576039,-46.19,168.86,57.99,96,100,7.0
Poya,1583576039,-21.35,165.15,82.63,78,80,9.4
Atuona,1583576039,-9.8,-139.03,81.72,69,0,10.47
Zyryanka,1583575925,65.75,150.85,-7.67,84,0,8.28
Hong Kong,1583575937,22.29,114.16,78.01,73,40,6.93
George Town,1583576040,5.41,100.34,89.6,62,20,5.82
Vaini,1583576040,-21.2,-175.2,75.2,83,75,3.36
Nipawin,1583576040,53.37,-104.0,21.2,73,75,25.28
Foshan,1583576040,23.03,113.13,75.0,78,75,2.24
Ushuaia,1583575850,-54.8,-68.3,46.4,93,90,18.34
Prabumulih,1583576042,-3.45,104.25,89.53,60,95,5.01
Walvis Bay,1583576042,-22.96,14.51,78.8,61,0,5.82
Edéa,1583576042,3.8,10.13,86.0,84,75,4.7
Aswān,1583576042,24.09,32.91,74.14,24,0,10.58
Orsk,1583576042,51.2,58.57,23.0,57,0,11.18
Kamaishi,1583576043,39.27,141.88,41.0,52,40,2.24
Ixtapa,1583576043,20.7,-105.2,71.01,94,75,5.82
Lloydminster,1583576043,53.28,-110.0,10.4,72,90,11.41
Saint George,1583576043,37.1,-113.58,53.6,40,1,6.93
Lüderitz,1583576044,-26.65,15.16,91.4,41,0,2.24
Saint-Philippe,1583576044,-21.36,55.77,82.4,78,40,15.32
Busselton,1583576044,-33.65,115.33,75.99,43,49,17.58
Katsuura,1583575745,35.13,140.3,48.99,66,75,10.29
Itaueira,1583576044,-7.6,-43.03,71.33,98,100,8.41
Oroville,1583575836,39.51,-121.56,53.6,71,90,19.46
Anagé,1583576045,-14.61,-41.14,69.12,98,77,0.65
Port Alfred,1583576045,-33.59,26.89,75.99,76,0,4.0
Sangmélima,1583576046,2.93,11.98,81.34,67,100,3.06
Albany,1583575777,42.6,-73.97,30.99,63,1,6.93
Yellowknife,1583576046,62.46,-114.35,-23.01,74,5,3.36
Price,1583576046,39.6,-110.81,37.99,55,1,3.36
Cherskiy,1583576047,68.75,161.3,-8.32,88,9,6.6
Nantucket,1583576047,41.28,-70.1,32.0,94,90,43.62
Saskylakh,1583576047,71.92,114.08,-35.16,94,41,12.03
Cockburn Town,1583576047,21.46,-71.14,76.8,78,54,7.54
Ţahţā,1583576048,26.77,31.5,68.7,38,0,6.31
Xai-Xai,1583576048,-25.05,33.64,84.52,50,2,12.17
Khatanga,1583576048,71.97,102.5,-30.6,96,94,8.77
Banjar,1583576048,-8.19,114.97,80.78,80,78,4.72
Philadelphia,1583575882,39.95,-75.16,37.99,92,90,8.05
Comodoro Rivadavia,1583575804,-45.87,-67.5,57.2,50,0,34.45
Vardø,1583576049,70.37,31.11,32.67,85,100,17.65
San Rafael,1583575907,-34.62,-68.33,74.8,45,0,9.73
Chokurdakh,1583576050,70.63,147.92,-10.95,75,0,5.68
Olinda,1583576050,-8.01,-34.86,84.2,74,40,4.7
Aktau,1583576050,43.65,51.2,51.8,17,99,26.84
Hilo,1583576050,19.73,-155.09,68.0,88,75,3.36
Sinnamary,1583576051,5.38,-52.95,79.97,75,89,15.75
Springbok,1583576051,-29.66,17.89,89.53,19,27,7.81
Dzerzhinsk,1583576051,56.24,43.46,42.8,75,75,6.71
Sørland,1583576051,67.67,12.69,41.0,75,40,17.22
Nome,1583575821,64.5,-165.41,-7.6,91,90,1.99
Port Elizabeth,1583575852,-33.92,25.57,87.8,52,0,6.93
Qaanaaq,1583576052,77.48,-69.36,-25.96,60,6,5.37
Faanui,1583576052,-16.48,-151.75,83.8,67,95,4.43
Upernavik,1583576053,72.79,-56.15,-25.8,98,91,5.19
Sangar,1583576053,63.92,127.47,12.81,93,100,9.44
Gushikawa,1583576054,26.35,127.87,69.8,82,90,4.7
Boa Vista,1583576006,2.82,-60.67,77.0,69,92,10.29
Isangel,1583576054,-19.55,169.27,80.6,83,20,5.82
Novo Aripuanã,1583576054,-5.12,-60.38,72.93,97,79,1.88
Barrow,1583576054,71.29,-156.79,-0.4,84,90,6.93
Ayagoz,1583576055,47.97,80.44,2.17,88,100,15.19
Teterow,1583576055,53.78,12.57,44.01,81,75,17.22
Hobart,1583575950,-42.88,147.33,55.4,62,75,8.05
Jurm,1583576055,36.86,70.83,25.56,76,99,10.4
Carson City,1583576056,39.16,-119.77,53.01,34,75,20.8
Clarksburg,1583576056,39.28,-80.34,33.8,92,90,6.93
George Town,1583576040,5.41,100.34,89.6,62,20,5.82
Kalininsk,1583576056,51.5,44.48,42.73,59,100,19.17
Nikolskoye,1583576057,59.7,30.79,39.0,81,100,6.71
Kontagora,1583576057,10.4,5.47,92.7,7,71,6.98
Miyako,1583576057,39.64,141.95,35.51,60,26,4.43
Alugan,1583576057,12.22,125.48,80.06,87,100,7.34
Severnyy-Kospashskiy,1583576057,59.09,57.8,24.01,78,100,5.01
Tura,1583576058,25.52,90.22,72.59,72,100,6.24
Maidenhead,1583575977,51.52,-0.72,46.99,75,90,12.75
Cam Ranh,1583576058,11.92,109.16,86.0,62,20,8.05
Lavrentiya,1583576058,65.58,-171.0,5.92,92,100,5.55
Beswān,1583576058,27.65,77.88,78.04,36,25,2.37
Kavieng,1583576059,-2.57,150.8,84.18,76,100,13.6
Castro,1583576059,-24.79,-50.01,56.34,96,67,3.24
Nanortalik,1583576059,60.14,-45.24,28.78,70,100,4.54
Gorontalo,1583576059,0.54,123.06,77.86,86,100,2.37
Cape Town,1583575837,-33.93,18.42,82.99,73,20,6.93
Puerto Ayora,1583576060,-0.74,-90.35,75.99,100,0,2.84
Ancud,1583576060,-41.87,-73.82,46.4,100,100,4.7
Oxapampa,1583576060,-10.58,-75.4,49.87,95,82,4.27
Jamestown,1583575922,42.1,-79.24,30.2,85,90,8.05
Mvuma,1583576061,-19.28,30.53,63.37,80,100,10.69
Wagar,1583576061,16.15,36.2,99.45,12,7,13.4
Sitka,1583576061,57.05,-135.33,28.4,79,1,7.05
Geraldton,1583576061,-28.77,114.6,75.2,64,0,18.34
Bakchar,1583576061,57.02,82.07,9.52,81,61,10.51
Asău,1583576062,46.43,26.4,59.0,58,40,4.7
Buchanan,1583576062,5.88,-10.05,84.51,71,100,3.36
New Norfolk,1583576062,-42.78,147.06,55.4,62,75,8.05
Caravelas,1583576062,-17.71,-39.25,76.55,88,100,13.53
Sarangani,1583576062,5.4,125.46,83.14,69,100,4.76
Flinders,1583576063,-34.58,150.86,66.99,88,40,4.7
Zeya,1583576063,53.75,127.27,23.02,96,100,6.02
Columbus,1583576015,39.96,-83.0,30.99,68,90,10.29
Petrolina de Goiás,1583576063,-16.09,-49.34,69.8,93,100,1.72
Yinchuan,1583576064,38.47,106.27,62.13,20,5,13.13
Saint-Pierre,1583576064,-21.34,55.48,82.4,78,40,21.34
Palmer,1583576064,42.16,-72.33,37.4,55,90,12.75
Mar del Plata,1583575988,-38.0,-57.56,69.01,100,90,5.82
León,1583575938,21.12,-101.67,46.33,81,68,4.09
Taltal,1583576066,-25.4,-70.48,56.84,89,20,2.91
Konya Province,1583576066,38.17,32.5,53.6,58,0,5.82
Klaksvík,1583576066,62.23,-6.59,35.6,76,100,20.8
Alice Springs,1583576066,-23.7,133.88,84.2,20,0,10.29
San Juan del Sur,1583576067,11.25,-85.87,79.5,78,2,28.63
Pevek,1583575926,69.7,170.31,-12.57,99,17,5.55
Tual,1583576067,-5.67,132.75,78.57,88,100,10.38
Villarrica,1583576067,-25.75,-56.43,66.16,57,0,5.17
Cedar City,1583576068,37.68,-113.06,42.8,48,1,6.93
Thompson,1583576068,55.74,-97.86,-7.6,63,5,11.41
Tiksi,1583576068,71.69,128.87,-3.48,99,100,9.62
Whitianga,1583576068,-36.83,175.7,64.0,75,100,2.75
Butaritari,1583576068,3.07,172.79,84.99,76,100,8.37
Port Hardy,1583576069,50.7,-127.42,32.0,99,75,2.24
Yaan,1583576069,7.38,8.57,91.9,49,27,7.05
La Ciotat,1583576069,43.17,5.6,57.2,50,20,25.28
Callaway,1583576069,30.15,-85.57,48.2,45,1,8.05
Pijijiapan,1583576069,15.7,-93.23,70.39,61,0,5.99
Shiyan,1583576070,32.65,110.78,63.09,49,85,12.03
Bredasdorp,1583576070,-34.53,20.04,86.0,40,0,13.87
Kruisfontein,1583576072,-34.0,24.73,94.32,28,0,10.16
Samarai,1583576072,-10.62,150.67,79.43,85,100,4.9
Avarua,1583576073,-21.21,-159.78,77.0,100,100,2.24
Mishkino,1583576073,55.34,63.92,27.05,69,100,19.95
Pitimbu,1583576073,-7.47,-34.81,78.8,100,40,4.7
Iqaluit,1583576073,63.75,-68.51,-13.0,69,75,4.56
Kaitangata,1583576074,-46.28,169.85,61.0,83,100,1.01
Phuket,1583575855,8.0,98.25,86.0,66,40,9.17
Praia,1583576074,14.92,-23.51,75.2,64,20,11.41
Pangnirtung,1583576074,66.15,-65.71,-25.19,95,100,3.42
Čajniče,1583576075,43.56,19.07,42.8,81,40,9.17
Nokaneng,1583576077,-19.67,22.27,77.38,54,0,10.63
Hithadhoo,1583576077,-0.6,73.08,83.57,64,0,7.58
Grand Gaube,1583576077,-20.01,57.66,82.4,88,90,10.29
Kushiro,1583576077,42.98,144.37,28.4,68,20,4.7
Iskateley,1583576077,67.68,53.15,27.0,92,98,21.92
Stokmarknes,1583576078,68.56,14.91,37.4,74,75,11.41
Sept-Îles,1583576078,50.2,-66.38,8.01,50,5,13.87
Lagoa,1583576078,39.05,-27.98,62.08,92,100,23.49
Nardaran,1583576079,40.56,50.01,53.6,58,100,20.8
Bembèrèkè,1583576079,10.23,2.66,90.28,42,28,2.95
Dabou,1583576079,5.33,-4.38,86.0,74,40,9.17
Atambua,1583576079,-9.11,124.89,78.44,84,100,1.77
Dalvik,1583576079,65.97,-18.53,3.2,84,54,16.11
Kenai,1583576080,60.55,-151.26,17.01,66,90,4.7
Faya,1583576080,18.39,42.45,78.8,12,20,4.7
Biak,1583576080,-0.91,122.88,82.4,70,100,3.96
Tuktoyaktuk,1583576080,69.45,-133.04,-17.34,80,0,10.96
Santiago del Estero,1583576081,-27.8,-64.26,71.24,43,0,7.67
Waipawa,1583576081,-41.41,175.52,62.6,72,100,12.75
Ṭikāpur,1583576081,28.5,81.13,75.54,52,0,3.85
Celestún,1583576081,20.87,-90.4,72.18,76,100,22.41
Arraial do Cabo,1583576081,-22.97,-42.03,73.4,88,40,13.87
Codrington,1583576082,-38.27,141.97,59.95,78,25,19.8
Sanguéya,1583576082,10.7,-14.37,79.57,72,1,3.38
Ginir,1583576082,7.13,40.7,77.49,39,76,8.99
Buala,1583576082,-8.14,159.59,82.08,80,82,6.58
Hamilton,1583575798,39.18,-84.53,34.0,83,90,4.7
Provideniya,1583576083,64.38,-173.3,7.7,69,100,2.26
Cabo San Lucas,1583576083,22.89,-109.91,64.99,52,68,3.0
Valdivia,1583575796,-39.81,-73.25,42.8,100,76,2.57
Kovdor,1583576083,67.57,30.48,22.75,92,8,8.63
Kungsbacka,1583575813,57.49,12.08,43.0,73,61,3.36
Ponta do Sol,1583576084,32.67,-17.1,63.0,63,40,18.34
Souillac,1583576084,-20.52,57.52,82.4,88,90,10.29
Polson,1583576084,47.69,-114.16,37.99,74,20,3.47
San Juan,1583576084,-31.54,-68.54,78.57,42,0,6.06
Launceston,1583576085,-41.45,147.17,57.99,71,40,13.87
Coquimbo,1583576085,-29.95,-71.34,57.2,87,0,2.24
Carnarvon,1583576085,-24.87,113.63,84.2,62,0,16.11
Kysyl-Syr,1583576085,63.9,122.76,8.47,91,100,6.2
Monduli,1583576086,-3.3,36.45,75.2,69,75,3.29
Changli,1583576086,39.7,119.15,48.0,40,0,10.09
Vostok,1583576086,46.49,135.88,24.19,95,100,3.13
Namatanai,1583576086,-3.67,152.43,84.07,76,100,11.45
Aklavik,1583576087,68.22,-135.01,-9.4,57,5,8.05
Paamiut,1583576087,61.99,-49.67,17.24,88,100,13.82
Lorengau,1583576088,-2.02,147.27,85.3,75,100,11.97
Bayan,1583576088,46.08,127.4,28.2,87,100,6.51
Bursa,1583575875,40.17,29.08,62.6,42,0,4.7
Bosaso,1583576088,11.28,49.18,82.4,74,0,14.99
Kapaa,1583576046,22.08,-159.32,73.4,78,40,26.4
Gordeyevka,1583576089,52.96,31.97,50.95,80,100,10.67
San Cristobal,1583576089,7.77,-72.22,51.19,80,38,2.8
Rongcheng,1583576089,30.63,117.85,62.01,92,29,3.44
Mount Isa,1583576021,-20.73,139.5,84.2,35,0,11.41
Ust'-Ishim,1583576089,57.69,71.17,26.29,78,100,15.28
Belyy Yar,1583576090,53.6,91.39,12.2,66,99,11.18
Norman Wells,1583576090,65.28,-126.83,-11.2,76,5,9.17
Yuryuzan',1583576090,54.86,58.42,35.83,42,100,15.55
Kautokeino,1583576091,69.01,23.04,21.56,82,81,3.85
Tasiilaq,1583576091,65.61,-37.64,19.4,48,100,2.24
Tazovsky,1583576091,67.47,78.7,0.1,94,100,22.82
Mezen',1583576091,65.85,44.24,29.44,86,93,17.65
Krasnoborsk,1583576091,61.56,45.93,34.59,77,94,10.98
Mehamn,1583576092,71.04,27.85,30.16,85,100,10.96
Demyansk,1583576092,57.64,32.47,35.24,83,100,8.52
Mahébourg,1583576092,-20.41,57.7,82.4,88,90,10.29
Coolum Beach,1583576092,-26.53,153.1,77.0,92,43,1.99
Laguna,1583576093,38.42,-121.42,53.6,71,1,4.7
Oltina,1583576093,44.17,27.67,64.0,55,0,5.82
Cidreira,1583576093,-30.18,-50.21,71.78,77,100,18.79
Ketchikan,1583575810,55.34,-131.65,35.6,86,1,6.93
Mosquera,1583575861,4.71,-74.23,50.0,87,40,4.7
Talcahuano,1583576094,-36.72,-73.12,59.0,93,75,1.12
Ostrovnoy,1583576094,68.05,39.51,25.21,83,0,25.03
Mount Gambier,1583576094,-37.83,140.77,59.0,67,90,17.22
Ilulissat,1583576094,69.22,-51.1,-0.4,70,100,4.7
Petropavlovsk-Kamchatskiy,1583576095,53.05,158.65,26.6,58,86,2.24
Hwange,1583576095,-18.37,26.5,77.81,53,3,8.25
Pochutla,1583576095,15.74,-96.47,75.0,83,100,9.04
Lima,1583576044,-12.04,-77.03,71.6,88,40,4.7
Sydney,1583576000,-33.87,151.21,68.0,88,75,16.11
Port Hedland,1583576096,-20.32,118.57,89.6,66,1,16.11
Ust-Nera,1583576096,64.57,143.2,-20.63,100,54,0.89
Havøysund,1583576098,71.0,24.66,33.8,100,75,14.99
Forsytheganj,1583576098,52.63,29.73,50.25,86,100,6.46
Ballina,1583576099,-28.87,153.57,71.6,94,90,12.75
Constitución,1583576099,-35.33,-72.42,57.13,75,22,3.69
Quincy,1583575880,42.25,-71.0,33.01,82,75,16.11
Rabo de Peixe,1583576099,37.8,-25.58,62.6,82,75,13.87
Tsirguliina,1583576099,57.86,26.19,37.99,71,100,8.05
Nueva Guinea,1583576100,11.69,-84.46,70.47,97,26,8.52
Oddur,1583576100,4.12,43.89,87.6,44,67,11.14
Impfondo,1583576100,1.64,18.07,72.75,91,100,2.57
Nikita,1583576101,44.53,34.23,50.14,65,100,6.33
Clarksdale,1583576030,34.2,-90.57,39.99,70,0,5.26
Tiarei,1583576101,-17.53,-149.33,80.6,78,20,4.7
South Kazakhstan Region,1583576102,43.0,68.0,37.62,20,0,30.98
Safi,1583576102,32.3,-9.24,57.15,57,0,21.03
Karratha,1583576102,-20.74,116.85,87.35,69,27,15.1
Umluj,1583576102,25.02,37.27,75.67,22,0,11.83
Tessalit,1583576102,20.2,1.01,85.21,6,0,3.33
Dikson,1583576103,73.51,80.55,-10.08,73,100,11.01
Severo-Kuril'sk,1583576103,50.68,156.12,16.68,89,32,11.03
Dārāb,1583575922,28.75,54.54,70.9,16,0,4.63
Kutum,1583576103,14.2,24.67,84.38,10,0,14.36
Port Macquarie,1583576103,-31.43,152.92,72.0,68,90,8.05
Harper,1583576104,4.38,-7.72,83.75,76,72,4.12
Kinel',1583576104,53.23,50.65,32.0,69,100,17.9
Barra do Corda,1583576104,-5.5,-45.25,71.2,97,65,1.01
Taksimo,1583576104,56.34,114.88,9.3,73,98,2.75
Kobryn,1583576105,52.21,24.36,46.4,70,91,4.47
Bull Savanna,1583576105,17.89,-77.59,66.34,88,0,4.5
Madison Heights,1583576062,42.49,-83.11,28.99,73,75,6.93
Sobolevo,1583576106,54.43,31.9,42.6,98,100,5.32
Niquero,1583576106,20.04,-77.58,68.85,90,0,5.86
Yuzhnyy,1583576106,53.25,83.69,8.6,55,100,11.18
Taoudenni,1583576107,22.68,-3.98,83.77,6,0,5.7
Ambon City,1583576026,-3.7,128.18,79.92,83,100,13.09
Beloha,1583576107,-25.17,45.05,82.83,56,55,20.24
Lárdos,1583576107,36.09,28.02,66.2,63,20,5.82
Khandagayty,1583576107,50.73,92.05,15.75,63,100,20.24
Severnyy,1583576108,50.68,36.55,46.4,93,75,11.18
Road Town,1583576054,18.42,-64.62,75.99,78,1,6.93
Vanimo,1583576108,-2.67,141.3,82.08,81,100,17.69
Farnes,1583576108,61.32,7.8,28.4,68,20,16.11
Arman',1583576109,59.7,150.17,-2.11,95,0,2.26
Lokoja,1583576109,7.8,6.74,91.09,50,100,2.06
Tocopilla,1583576109,-22.09,-70.2,52.93,40,0,3.76
Bodden Town,1583576109,19.28,-81.25,78.01,85,0,5.01
San Rafael del Sur,1583576109,11.85,-86.44,77.0,83,40,6.93
Yangi Marg`ilon,1583576110,40.43,71.72,48.2,65,75,11.03
Kalat,1583576110,29.02,66.59,50.9,15,0,14.99
Salalah,1583576110,17.02,54.09,80.6,47,20,9.17
Ashoknagar,1583576110,24.57,77.72,81.61,17,0,11.59
Tezu,1583576110,27.92,96.17,76.93,44,99,4.07
Krasnoarmeyskoye,1583576111,52.72,50.03,29.3,70,97,15.35
Los Llanos de Aridane,1583576111,28.66,-17.92,66.2,55,75,12.75
Kandrian,1583576111,-6.22,149.55,79.23,81,100,7.9
Fare,1583576111,-16.7,-151.02,83.41,72,91,6.44
Lafiagi,1583576112,8.87,5.42,94.68,29,0,4.47
Pisco,1583576112,-13.7,-76.22,71.6,83,91,8.05
Kismayo,1583576112,-0.36,42.55,85.23,72,0,9.78
Belaya Gora,1583575926,68.53,146.42,-12.68,89,0,1.83
Nālūt,1583576112,30.33,10.85,61.84,26,24,13.98
Bontang,1583576113,0.13,117.5,82.15,73,100,6.44
Clyde River,1583576113,70.47,-68.59,-25.6,67,90,8.05
Eureka,1583576113,40.8,-124.16,46.0,93,90,10.29
Port Lincoln,1583576113,-34.73,135.87,65.35,68,33,15.97
Talnakh,1583576113,69.49,88.4,-16.6,75,100,4.47
Spas-Demensk,1583576114,54.41,34.02,49.37,80,98,9.06
Hervey Bay,1583576114,-25.3,152.85,78.8,83,90,10.29
Vila Velha,1583576114,-20.33,-40.29,73.4,78,100,6.93
Nichinan,1583576114,31.6,131.37,53.6,100,75,5.82
Jacareacanga,1583576114,-6.22,-57.75,73.27,98,100,1.19
Mahon,1583576014,39.89,4.27,55.4,54,40,25.28
Fortuna,1583576116,40.6,-124.16,46.0,100,90,3.87
Basco,1583576116,20.45,121.97,78.46,86,6,10.47
La Ronge,1583576117,55.1,-105.28,-0.4,64,40,10.29
Myrtle Beach,1583576055,33.69,-78.89,42.01,64,1,3.36
Tsiroanomandidy,1583576118,-18.77,46.03,84.56,60,100,2.84
Serowe,1583576118,-22.38,26.72,75.33,44,23,12.28
Beringovskiy,1583575926,63.05,179.32,-3.48,87,0,6.24
Gusau,1583576118,12.16,6.66,89.37,8,0,14.7
Porto-Novo,1583576118,6.5,2.6,86.0,74,20,8.05
Nouadhibou,1583576119,20.93,-17.03,68.0,56,42,24.16
Mossamedes,1583576119,-15.2,12.15,78.8,78,11,11.77
Port-Cartier,1583576119,50.03,-66.87,8.01,46,20,12.75
Dingle,1583576119,11.0,122.67,77.88,87,100,11.52
Guerrero Negro,1583576120,27.98,-114.06,61.03,79,21,5.95
Tshela,1583576120,-4.98,12.93,77.72,83,100,1.32
Changde,1583576120,29.05,111.68,56.26,87,100,3.94
Igboho,1583576120,8.83,3.75,89.38,50,33,4.32
Pemba,1583576120,-12.97,40.52,87.8,66,75,12.75
Spornoye,1583576120,50.84,37.29,46.4,93,75,11.18
Pembroke,1583575877,45.82,-77.12,14.0,61,1,6.93
Hofn,1583576121,64.25,-15.21,33.58,89,100,36.37
Pala,1583576121,9.36,14.9,94.23,11,13,8.52
Borşa,1583575880,47.66,24.66,43.0,84,100,3.8
La Baule-Escoublac,1583576121,47.29,-2.36,54.0,87,90,9.17
Saquena,1583576122,-4.67,-73.52,71.55,99,61,1.83
Agirish,1583576122,61.92,63.02,34.11,80,100,15.66
Nishihara,1583576122,26.18,127.76,69.8,88,75,12.75
Airai,1583576122,-8.93,125.41,70.92,97,100,2.24
Liku,1583576122,-0.73,119.89,76.57,81,100,2.53
Lokvine,1583576123,44.2,17.86,41.0,100,90,8.05
Orlik,1583576123,52.52,99.83,9.93,60,100,3.85
Kieta,1583576123,-6.22,155.63,84.9,75,100,6.31
Naze,1583576123,28.37,129.48,66.2,93,75,23.04
Boddam,1583576123,57.47,-1.78,41.0,86,75,19.46
Gravdal,1583576124,68.12,13.5,37.4,76,40,9.17
Heilbron,1583576124,-27.28,27.97,76.64,21,0,8.5
Touros,1583576124,-5.2,-35.46,77.0,94,75,3.36
Avera,1583576124,33.19,-82.53,39.2,69,1,6.93
Shelburne,1583576104,44.08,-80.2,21.99,66,1,4.7
Mbandaka,1583576125,0.05,18.26,83.14,64,100,4.79
Sioux Lookout,1583576125,50.1,-91.92,26.6,58,75,8.05
Manteca,1583576125,37.8,-121.22,52.0,87,40,4.23
Ellensburg,1583576126,47.0,-120.55,45.0,86,90,4.7
Ormara,1583576126,25.21,64.64,73.89,36,0,7.34
Rocha,1583576126,-34.48,-54.33,56.71,96,0,6.44
Laas,1583576126,46.62,10.7,51.8,37,20,2.24
Mercedes,1583576126,-34.65,-59.43,72.0,91,89,8.19
Zyryanovsk,1583576127,49.74,84.27,5.36,84,100,3.91
Esperance,1583576127,-33.87,121.9,77.0,61,15,18.34
Fraga,1583576127,41.52,0.35,50.0,71,33,9.17
Port Augusta,1583576128,-32.5,137.77,71.6,64,7,20.8
Mana,1583576128,5.66,-53.78,72.61,93,82,2.95
Wick,1583576128,58.43,-3.08,41.0,86,100,19.46
East London,1583575943,-33.02,27.91,86.0,62,0,8.05
Husavik,1583576129,66.04,-17.34,3.2,84,7,16.11
Buraidah,1583576129,26.33,43.98,69.8,37,0,9.17
Anadyr,1583576129,64.75,177.48,-16.01,75,0,6.71
Svetlaya,1583576129,46.54,138.33,28.98,78,100,24.32
Ouadda,1583576129,8.08,22.4,97.16,13,66,6.85
Kallithea,1583576129,37.95,23.7,64.4,72,40,12.75
Itarema,1583576130,-2.92,-39.92,74.62,93,53,2.68
Wasserburg,1583576130,48.44,10.27,42.01,86,75,8.05
Purranque,1583576011,-40.92,-73.17,46.4,100,75,2.3
Bethel,1583576130,41.37,-73.41,37.99,64,1,17.22
Strezhevoy,1583576131,60.73,77.59,14.0,78,90,17.9
Sur,1583575979,22.57,59.53,78.94,24,0,9.98
Ribeira Grande,1583576131,38.52,-28.7,62.6,93,75,18.34
San Policarpo,1583576131,12.18,125.51,80.06,87,100,7.34
Marsh Harbour,1583576132,26.54,-77.06,67.33,63,0,25.9
Nieuw Amsterdam,1583576132,5.88,-55.08,75.2,88,20,13.27
Hearst,1583576132,49.68,-83.67,12.16,87,99,9.01
The Valley,1583576132,18.22,-63.06,77.0,78,20,4.7
Curuguaty,1583576132,-24.47,-55.69,67.1,86,38,3.02
Roebourne,1583576133,-20.78,117.13,98.35,26,99,10.85
Kidal,1583576133,18.44,1.41,85.75,5,0,7.49
Yabēlo,1583576133,4.88,38.08,81.95,37,47,10.07
Zimovniki,1583576133,47.15,42.46,55.42,59,91,10.56
Mokhsogollokh,1583576133,61.47,128.92,21.36,90,100,7.05
Kahului,1583576068,20.89,-156.47,69.8,88,20,17.22
Camacha,1583576134,33.08,-16.33,62.6,67,75,17.22
Esim,1583576134,4.87,-2.24,85.98,71,65,6.46
Bundaberg,1583576134,-24.85,152.35,78.8,83,90,10.29
Plouzané,1583576134,48.38,-4.62,53.6,87,100,12.75
Wanning,1583576134,18.8,110.4,76.8,82,22,11.3
Gemeente Putten,1583576135,52.25,5.6,48.99,75,20,8.05
Bodaybo,1583576135,57.85,114.19,9.28,83,100,12.77
Joshīmath,1583576135,30.57,79.57,34.77,96,100,4.0
Soyo,1583576135,-6.13,12.37,86.0,74,40,6.93
Bulungu,1583576136,-4.55,18.6,81.54,78,100,0.81
Guozhen,1583576136,34.37,107.36,63.75,30,26,10.51
Arlit,1583576136,18.74,7.39,85.87,8,0,4.61
Powell River,1583576136,49.85,-124.54,37.4,86,90,2.24
Wajir,1583575895,1.75,40.06,93.2,49,75,3.36
Yumen,1583576137,40.28,97.2,46.54,23,100,15.48
Vila Franca do Campo,1583576137,37.72,-25.43,62.6,82,75,13.87
Nobres,1583576137,-14.72,-56.33,68.85,94,15,3.09
Capim Grosso,1583576087,-11.38,-40.01,73.22,92,99,3.78
Vredendal,1583576138,-31.67,18.5,90.18,29,0,1.59
Torbay,1583576213,47.67,-52.73,18.0,85,75,5.82
Davila,1583576213,18.47,120.58,82.4,83,75,5.82
Erzin,1583576213,36.96,36.2,69.8,46,0,5.82
Te Anau,1583576214,-45.42,167.72,55.99,86,100,1.32
Bilibino,1583576214,68.05,166.44,-18.17,98,0,3.02
Seoul,1583576113,37.57,126.98,53.6,39,75,2.24
Mumbwa,1583576214,-14.98,27.06,74.59,68,1,8.01
Indiaroba,1583576214,-11.52,-37.51,77.47,93,100,4.05
Barra da Estiva,1583576215,-13.63,-41.33,64.56,97,52,0.78
Fairbanks,1583576215,64.84,-147.72,1.99,77,1,0.98
Tavricheskoye,1583576215,54.59,73.64,19.4,67,40,20.13
Kumano,1583576216,34.34,132.59,51.8,93,75,6.93
Pontianak,1583576216,-0.03,109.33,84.36,80,100,4.38
Pachino,1583576216,36.72,15.09,55.99,81,75,8.05
Mildura,1583576147,-34.2,142.15,73.4,31,61,5.82
São Filipe,1583576217,14.9,-24.5,70.75,77,1,13.31
Araouane,1583576217,18.9,-3.53,84.07,5,0,4.94
Lincoln,1583576069,40.8,-96.67,46.99,48,1,12.75
Baykit,1583576218,61.67,96.37,7.03,83,100,5.28
Kudahuvadhoo,1583576218,2.67,72.89,83.01,59,0,2.53
Krasnoshchekovo,1583576218,51.67,82.73,5.02,93,100,5.91
Mil'kovo,1583576218,54.72,158.62,8.83,96,100,1.72
Southbridge,1583576219,42.08,-72.03,36.0,59,90,21.92
Cayenne,1583576091,4.93,-52.33,75.2,94,74,3.36
Yulara,1583576219,-25.24,130.99,95.0,13,0,10.29
Alofi,1583576147,-19.06,-169.92,75.2,100,100,3.36
Shumskiy,1583576219,54.83,99.13,12.69,77,100,9.17
Lukovetskiy,1583576220,64.3,41.92,35.6,64,86,8.95
Bandarbeyla,1583576220,9.49,50.81,78.98,69,25,8.66
Cortez,1583576220,37.35,-108.59,42.8,35,1,4.7
Sūsangerd,1583576220,31.56,48.18,77.0,27,90,13.87
Moranbah,1583576220,-22.0,148.05,81.59,70,26,9.51
Cap Malheureux,1583576221,-19.98,57.61,82.4,88,90,10.29
Maceió,1583576214,-9.67,-35.74,78.8,88,40,2.24
Dunedin,1583576109,-45.87,170.5,62.01,83,100,1.01
Río Gallegos,1583576221,-51.62,-69.22,42.8,93,29,9.17
Dvinskoy Bereznik,1583576222,62.86,42.71,31.77,83,53,8.23
Jumla,1583576222,29.27,82.18,35.42,98,100,5.77
Kang,1583576222,-23.68,22.79,78.82,33,0,12.59
Valdemārpils,1583576222,57.37,22.59,42.8,75,100,8.05
Nuuk,1583576223,64.18,-51.72,15.8,85,100,23.04
Lompoc,1583576223,34.64,-120.46,51.01,93,90,4.27
Amga,1583576223,60.9,131.96,16.29,95,100,5.48
Sittwe,1583576223,20.15,92.9,78.76,63,0,14.2
Bambous Virieux,1583576223,-20.34,57.76,82.4,88,90,10.29
Vestmannaeyjar,1583576224,63.44,-20.27,32.0,62,75,38.03
Thessalon,1583576224,46.25,-83.57,10.4,84,1,4.07
Barra Patuca,1583576224,15.8,-84.28,79.03,77,0,14.97
Temba,1583576224,-25.38,28.26,73.0,49,0,3.36
Gaza,1583576225,31.5,34.47,66.2,59,40,10.29
Hakui,1583576225,36.88,136.78,48.2,45,100,2.24
Yerbogachën,1583576225,61.28,108.01,-1.12,88,100,8.86
Pacific Grove,1583576225,36.62,-121.92,52.0,81,90,4.7
Berlevåg,1583576226,70.86,29.09,33.62,73,100,14.56
Zhigansk,1583576226,66.77,123.37,14.14,93,100,16.51
Luorong,1583576226,24.41,109.61,75.85,73,90,12.44
Balclutha,1583576227,-46.23,169.75,61.48,61,100,1.97
Gornopravdinsk,1583576227,60.05,69.9,29.64,78,99,16.8
Aiken,1583576227,33.58,-81.6,41.0,86,1,5.82
Bjerkvik,1583576228,68.56,17.52,37.99,94,75,17.22
Mareeba,1583576229,-17.0,145.43,84.2,79,100,2.24
Kupang,1583576229,-10.17,123.58,80.6,94,40,3.36
Puerto Madero,1583576229,14.72,-92.42,71.6,88,5,8.72
Sungai Raya,1583576229,0.7,108.9,85.46,68,99,8.01
Bloemfontein,1583576229,-29.12,26.21,77.0,47,0,9.17
Anderson,1583576230,34.53,-82.65,37.4,59,1,5.99
Preobrazheniye,1583576230,42.9,133.91,28.04,86,100,5.68
San Quintín,1583576230,30.48,-115.95,57.0,87,88,8.05
Boueni,1583576230,-12.9,45.08,77.0,94,100,6.93
State College,1583576186,40.79,-77.86,32.0,74,90,12.75
Praia da Vitória,1583576231,38.73,-27.07,64.4,77,75,25.05
Byron Bay,1583576122,-28.65,153.62,73.99,94,90,12.75
Banda Aceh,1583576231,5.56,95.32,87.03,58,48,8.97
Leningradskiy,1583576231,69.38,178.42,-9.63,95,72,3.47
Halifax,1583576004,44.65,-63.57,24.01,73,90,27.51
Timizart,1583576232,36.8,4.27,53.69,70,2,19.35
College,1583576232,64.86,-147.8,1.99,77,1,1.63
Liverpool,1583576172,53.41,-2.98,52.0,87,100,11.41
Kirakira,1583576232,-10.45,161.92,79.56,79,9,1.19
Östersund,1583576232,63.18,14.64,30.0,79,43,5.82
Borger,1583576233,52.92,6.79,46.99,70,40,9.17
Sabang,1583576233,5.89,95.32,83.34,74,13,14.45
Bairiki Village,1583576233,1.33,172.98,84.2,79,75,4.7
Sri Aman,1583576233,1.24,111.46,82.4,88,75,2.24
Lahaina,1583575969,20.88,-156.68,71.6,88,20,17.22
Egvekinot,1583576233,66.32,-179.17,-13.72,92,61,5.55
Penzance,1583576234,50.12,-5.54,53.01,100,75,17.22
Stornoway,1583576234,58.21,-6.39,48.99,100,75,24.16
Shimoda,1583576234,34.67,138.95,50.0,78,36,1.99
Puri,1583575983,19.8,85.85,86.0,62,40,2.24
Rāmtek,1583576235,21.4,79.33,87.8,31,40,3.36
Hare Bay,1583576235,48.85,-54.01,15.8,78,90,10.29
Chingirlau,1583576235,51.09,54.08,23.81,72,90,13.53
Visby,1583576237,57.64,18.3,45.0,70,75,13.87
San Felipe,1583576237,10.34,-68.74,68.72,93,60,2.01
Martvili,1583576237,42.41,42.38,66.2,22,40,31.09
Kampong Thom,1583576144,12.71,104.89,97.74,32,100,5.88
Bonavista,1583576238,48.65,-53.11,18.32,83,98,10.89
Santa Rosalía,1583576238,27.32,-112.28,62.51,44,0,9.08
Kumul,1583576238,42.8,93.45,48.76,25,100,6.33
Acarí,1583576239,-15.43,-74.62,65.12,89,100,2.51
Takoradze,1583576239,4.88,-1.76,85.98,71,65,6.46
Poum,1583576239,-20.23,164.02,82.44,78,47,16.53
Cuamba,1583576239,-14.8,36.54,76.42,72,57,8.37
Gimli,1583576239,50.63,-96.99,32.0,91,100,3.0
Dingcheng,1583576240,32.13,115.04,65.75,51,100,6.98
Grindavik,1583576240,63.84,-22.43,32.0,68,100,17.22
Narsaq,1583576057,60.92,-46.05,33.8,29,20,11.41
Saint Paul Harbor,1583576240,57.79,-152.41,24.8,73,1,5.82
San Ignacio,1583576240,17.16,-89.07,68.0,100,90,9.17
Independenţa,1583576241,45.48,27.75,59.0,51,40,11.41
Wuwei,1583576241,37.93,102.64,52.16,19,0,7.63
Deputatsky,1583576241,69.3,139.9,-12.69,88,81,1.57
Lovozero,1583576241,68.0,35.01,29.7,80,1,11.23
Mandiana,1583576241,10.63,-8.68,78.08,49,0,3.94
Alboraya,1583576157,39.5,-0.35,57.99,45,20,10.29
Forbes,1583576242,-33.38,148.02,72.0,66,72,6.38
Muzhi,1583576242,65.37,64.67,31.59,93,100,12.68
Matina,1583576242,10.08,-83.29,72.0,94,0,4.76
Port Hueneme,1583576242,34.15,-119.2,57.2,71,90,5.82
Sola,1583576243,-13.88,167.55,80.6,94,20,7.34
Palana,1583576243,59.12,159.97,1.69,99,17,0.63
Haines Junction,1583576243,60.75,-137.51,-5.67,99,100,1.28
Puerto Baquerizo Moreno,1583576243,-0.9,-89.6,79.97,77,68,1.41
Ko Samui,1583576244,9.54,99.94,87.8,66,20,8.05
Prince Rupert,1583576244,54.32,-130.32,30.2,86,1,8.05
Marquette,1583576244,46.53,-87.63,23.0,92,1,10.29
Yasnyy,1583576244,51.03,59.87,15.12,71,0,14.41
Ubari,1583576244,26.59,12.78,77.13,11,0,18.66
Bani Walid,1583576244,31.76,13.99,66.27,40,60,14.83
Mookane,1583576245,-23.69,26.66,79.18,32,0,11.83
Gobabis,1583576245,-22.45,18.97,80.6,36,0,6.93
Oodweyne,1583576245,9.41,45.06,84.06,26,0,5.17
Necochea,1583576246,-38.55,-58.74,66.99,95,100,11.01
Plastun,1583576246,44.76,136.29,24.78,91,100,4.21
Bukachacha,1583576246,52.98,116.92,17.38,64,96,9.17
Denpasar,1583576246,-8.65,115.22,79.54,80,100,3.4
Kisangani,1583576247,0.52,25.2,93.51,40,100,3.76
Half Moon Bay,1583576247,37.46,-122.43,52.0,87,90,5.82
Funadhoo,1583576247,6.15,73.27,83.19,67,1,2.98
Flin Flon,1583576247,54.77,-101.86,-3.59,93,100,11.68
Chui,1583576249,-33.7,-53.46,63.82,84,20,7.72
Province of Mantua,1583576249,45.17,10.78,55.99,66,100,3.36
Naliya,1583576249,23.27,68.83,83.84,19,0,5.84
Santa Rosa,1583576249,14.31,121.11,91.4,55,20,5.82
Qui Nhon,1583576033,13.77,109.23,81.54,66,33,6.96
Pontes e Lacerda,1583576250,-15.23,-59.34,68.36,80,16,1.52
Coshocton,1583576250,40.27,-81.86,32.0,68,90,10.29
Tateyama,1583576250,34.98,139.87,48.99,66,75,10.29
Korla,1583576250,41.76,86.15,52.0,43,100,7.0
Vila Praia de Âncora,1583576251,41.81,-8.85,57.2,71,20,3.36
Sfântu Gheorghe,1583576251,45.87,25.78,50.05,52,36,2.13
Bunbury,1583576251,-33.33,115.63,75.0,43,49,17.58
Solnechnyy,1583576252,50.72,136.63,15.01,92,88,3.44
Puerto Carreño,1583576252,6.19,-67.49,78.62,64,100,7.61
Longyearbyen,1583576252,78.22,15.64,19.4,85,75,1.12
Elliot Lake,1583576252,46.38,-82.63,1.4,84,1,0.67
Jiuquan,1583576252,39.74,98.52,36.32,34,92,3.27
Litovko,1583576253,49.24,135.17,21.27,95,100,0.87
Marihatag,1583576253,8.79,126.3,80.83,83,100,12.01
Morondava,1583576253,-20.28,44.28,95.7,46,0,4.12
Coyhaique,1583576253,-45.58,-72.07,46.4,87,90,4.7
Los Negros,1583576253,-17.73,-63.43,73.4,94,0,3.36
Makakilo City,1583576254,21.35,-158.09,75.2,93,90,5.82
Tuatapere,1583576254,-46.13,167.68,57.99,96,100,7.0
Talara,1583576254,-4.58,-81.27,76.3,88,51,5.41
Stann Creek Town,1583576254,16.97,-88.23,68.0,89,100,3.0
Khiri Mat,1583576254,16.83,99.8,97.0,37,40,6.93
Micheweni,1583576255,-4.97,39.83,85.14,76,11,13.85
Görele,1583576093,41.03,39.0,53.6,81,0,5.82
Cabedelo,1583576255,-6.98,-34.83,78.8,100,40,4.7
Cochrane,1583576031,51.18,-114.47,18.0,85,90,9.17
Viedma,1583576224,-40.81,-63.0,80.4,40,94,14.16
Puerto Suárez,1583576256,-18.95,-57.8,67.75,69,0,2.75
Quatre Cocos,1583576256,-20.21,57.76,82.4,88,90,10.29
Pedersore,1583576257,63.65,22.68,37.0,74,36,11.41
Princeton,1583576257,25.54,-80.41,64.0,62,1,11.41
Phayakkhaphum Phisai,1583576258,15.52,103.19,97.0,41,20,6.93
Emerald,1583576258,-23.53,148.17,84.2,62,21,8.05
